[
  {
    "type": "Feature",
    "properties": {
      "name": "XOXO",
      "address": "300 N Winning Way, Portland, OR 97227",
      "street": "N Winning Way",
      "icon": "xoxo",
      "schedule": {
        "6": "Thu: 11am - 1am",
        "7": "Fri: 8am - 1am",
        "8": "Sat: 8am - 1am",
        "9": "Sun: 8am - 1am"
      }
    },
    "geometry": {
      "type": "Point",
      "coordinates": [
        -122.66932725906372,
        45.533108507338945
      ]
    }
  },
  {
    "type": "Feature",
    "properties": {
      "name": "Canopy Hotel",
      "address": "425 NW 9th Ave, Portland, OR 97209",
      "street": "NW 9th & Glisan",
      "icon": "canopy",
      "schedule": {
        "6": "Thu: 11am - 1am",
        "7": "Fri: 8am - 1am",
        "8": "Sat: 8am - 1am",
        "9": "Sun: 8am - 1am"
      }
    },
    "geometry": {
      "type": "Point",
      "coordinates": [
        -122.68030822277068,
        45.52637044238647
      ]
    }
  },
  {
    "type": "Feature",
    "properties": {
      "name": "Ace Hotel",
      "address": "1022 SW Stark St, Portland, OR 97205",
      "street": "SW Stark & 10th",
      "icon": "acehotel",
      "schedule": {
        "6": "Thu: 11am - 1am",
        "7": "Fri: 8am - 1am",
        "8": "Sat: 8am - 1am",
        "9": "Sun: 8am - 1am"
      }
    },
    "geometry": {
      "type": "Point",
      "coordinates": [
        -122.68154203891754,
        45.52212350602907
      ]
    }
  },
  {
    "type": "Feature",
    "properties": {
      "name": "Pioneer Square",
      "address": "701 SW Broadway St, Portland, OR 97205",
      "street": "(Pickup for Dossier, Duniway and Marriott)<br>SW Broadway & Morrison",
      "icon": "pioneersquare",
      "schedule": {
        "6": "Thu: 11am - 1am",
        "7": "Fri: 8am - 1am",
        "8": "Sat: 8am - 1am",
        "9": "Sun: 8am - 1am"
      }
    },
    "geometry": {
      "type": "Point",
      "coordinates": [
        -122.67980933189392,
        45.51903957831533
      ]
    }
  },
  {
    "type": "Feature",
    "properties": {
      "name": "AC Hotels",
      "address": "888 SW 3rd Ave, Portland, OR 97204",
      "street": "SW Taylor & 3rd",
      "icon": "achotels",
      "schedule": {
        "6": "Thu: 11am - 1am",
        "7": "Fri: 8am - 1am",
        "8": "Sat: 8am - 1am",
        "9": "Sun: 8am - 1am"
      }
    },
    "geometry": {
      "type": "Point",
      "coordinates": [
        -122.67597377300262,
        45.51688392335582
      ]
    }
  },
  {
    "type": "Feature",
    "properties": {
      "name": "Embassy Suites",
      "address": "319 SW Pine St, Portland, OR 97204",
      "street": "SW Pine & 3rd",
      "icon": "embassy",
      "schedule": {
        "6": "Thu: 11am - 1am",
        "7": "Fri: 8am - 1am",
        "8": "Sat: 8am - 1am",
        "9": "Sun: 8am - 1am"
      }
    },
    "geometry": {
      "type": "Point",
      "coordinates": [
        -122.67412841320038,
        45.521743896993634
      ]
    }
  },
  {
    "type": "Feature",
    "properties": {
      "name": "The Society Hotel",
      "address": "203 NW 3rd Ave, Portland, OR 97209",
      "street": "NW 3rd & Davis",
      "icon": "society",
      "schedule": {
        "6": "Thu: 11am - 1am",
        "7": "Fri: 8am - 1am",
        "8": "Sat: 8am - 1am",
        "9": "Sun: 8am - 1am"
      }
    },
    "geometry": {
      "type": "Point",
      "coordinates": [
        -122.67349541187285,
        45.52473935607895
      ]
    }
  }
]
